[
  {
    "id": "001",
    "name": "故宫博物院",
    "summary": "中国古代宫廷建筑之精华",
    "category": "历史遗迹",
    "rating": 4.9,
    "location": {
      "latitude": 39.915,
      "longitude": 116.404
    },
    "ticketPrice": 60,
    "openingHours": "08:30-17:00",
    "image": "app.media.gugong",
    "cityId": "BJ",
    "cityName": "北京",
    "address": "东城区景山前街4号",
    "proId": "BJ",
    "proName": "北京",
    "areaId": "Dongcheng",
    "areaName": "东城区"
  },
  {
    "id": "002",
    "name": "长城",
    "summary": "世界文化遗产，中国古代的军事防御工程",
    "category": "历史遗迹",
    "rating": 4.8,
    "location": {
      "latitude": 40.4319,
      "longitude": 116.0225
    },
    "ticketPrice": 45,
    "openingHours": "06:30-19:00",
    "image": "app.media.changcheng",
    "cityId": "BJ",
    "cityName": "北京",
    "address": "延庆区G6京藏高速58号",
    "proId": "BJ",
    "proName": "北京",
    "areaId": "Yanqing",
    "areaName": "延庆区"
  },
  {
    "id": "003",
    "name": "西湖",
    "summary": "杭州西湖，人间天堂",
    "category": "自然风光",
    "rating": 4.7,
    "location": {
      "latitude": 30.2593,
      "longitude": 120.1551
    },
    "ticketPrice": 0,
    "openingHours": "全天",
    "image": "app.media.yiheyuan",
    "cityId": "HZ",
    "cityName": "杭州",
    "address": "西湖区龙井路1号",
    "proId": "ZJ",
    "proName": "浙江",
    "areaId": "Xihu",
    "areaName": "西湖区"
  },
  {
    "id": "004",
    "name": "外滩",
    "summary": "上海的标志性景点，观赏黄浦江两岸风光",
    "category": "城市观光",
    "rating": 4.6,
    "location": {
      "latitude": 31.2403,
      "longitude": 121.4737
    },
    "ticketPrice": 0,
    "openingHours": "全天",
    "image": "app.media.zhonglou",
    "cityId": "SH",
    "cityName": "上海",
    "address": "黄浦区中山东一路",
    "proId": "SH",
    "proName": "上海",
    "areaId": "Huangpu",
    "areaName": "黄浦区"
  },
  {
    "id": "005",
    "name": "九寨沟",
    "summary": "童话世界，水景之王",
    "category": "自然风光",
    "rating": 4.9,
    "location": {
      "latitude": 33.2628,
      "longitude": 103.9222
    },
    "ticketPrice": 169,
    "openingHours": "07:30-18:00",
    "image": "app.media.dayanta",
    "cityId": "AB",
    "cityName": "阿坝",
    "address": "阿坝藏族羌族自治州九寨沟县",
    "proId": "SC",
    "proName": "四川",
    "areaId": "Jiuzhaigou",
    "areaName": "九寨沟县"
  },
  {
    "id": "006",
    "name": "黄山",
    "summary": "五岳归来不看山，黄山归来不看岳",
    "category": "自然风光",
    "rating": 4.8,
    "location": {
      "latitude": 30.0744,
      "longitude": 118.0934
    },
    "ticketPrice": 190,
    "openingHours": "06:00-17:30",
    "image": "app.media.gugong",
    "cityId": "Huangshan",
    "cityName": "黄山",
    "address": "黄山市黄山区汤口镇",
    "proId": "AH",
    "proName": "安徽",
    "areaId": "Huangshan",
    "areaName": "黄山市"
  },
  {
    "id": "007",
    "name": "张家界国家森林公园",
    "summary": "世界自然遗产，世界地质公园",
    "category": "自然风光",
    "rating": 4.7,
    "location": {
      "latitude": 29.3444,
      "longitude": 110.4783
    },
    "ticketPrice": 228,
    "openingHours": "07:00-18:00",
    "image": "app.media.dayanta",
    "cityId": "ZJJ",
    "cityName": "张家界",
    "address": "张家界市武陵源区",
    "proId": "HN",
    "proName": "湖南",
    "areaId": "Wulingyuan",
    "areaName": "武陵源区"
  },
  {
    "id": "008",
    "name": "鼓浪屿",
    "summary": "世界文化遗产，海上花园",
    "category": "城市观光",
    "rating": 4.6,
    "location": {
      "latitude": 24.4426,
      "longitude": 118.0683
    },
    "ticketPrice": 0,
    "openingHours": "全天",
    "image": "app.media.gugong",
    "cityId": "XM",
    "cityName": "厦门",
    "address": "思明区鼓浪屿",
    "proId": "FJ",
    "proName": "福建",
    "areaId": "Siming",
    "areaName": "思明区"
  },
  {
    "id": "009",
    "name": "泰山",
    "summary": "五岳之首，天下第一山",
    "category": "自然风光",
    "rating": 4.8,
    "location": {
      "latitude": 36.2156,
      "longitude": 117.1018
    },
    "ticketPrice": 127,
    "openingHours": "全天",
    "image": "app.media.dayanta",
    "cityId": "Taian",
    "cityName": "泰安",
    "address": "泰安市泰山区红门路",
    "proId": "SD",
    "proName": "山东",
    "areaId": "Taishan",
    "areaName": "泰山区"
  },
  {
    "id": "010",
    "name": "兵马俑",
    "summary": "世界第八大奇迹，秦始皇陵的一部分",
    "category": "历史遗迹",
    "rating": 4.7,
    "location": {
      "latitude": 34.3715,
      "longitude": 109.2456
    },
    "ticketPrice": 120,
    "openingHours": "08:30-17:30",
    "image": "app.media.bingmayong",
    "cityId": "Xian",
    "cityName": "西安",
    "address": "临潼区秦陵北路",
    "proId": "SN",
    "proName": "陕西",
    "areaId": "Lintong",
    "areaName": "临潼区"
  },
  {
    "id": "011",
    "name": "峨眉山",
    "summary": "四大佛教名山之一",
    "category": "自然风光",
    "rating": 4.6,
    "location": {
      "latitude": 29.5476,
      "longitude": 103.4626
    },
    "ticketPrice": 160,
    "openingHours": "06:00-18:00",
    "image": "app.media.dayanta",
    "cityId": "EM",
    "cityName": "峨眉山",
    "address": "四川省乐山市峨眉山市黄湾镇",
    "proId": "SC",
    "proName": "四川",
    "areaId": "Emeishan",
    "areaName": "峨眉山"
  },
  {
    "id": "012",
    "name": "丽江古城",
    "summary": "世界文化遗产，纳西族文化的发源地",
    "category": "历史遗迹",
    "rating": 4.5,
    "location": {
      "latitude": 26.8625,
      "longitude": 100.2239
    },
    "ticketPrice": 0,
    "openingHours": "全天",
    "image": "app.media.gugong",
    "cityId": "LJ",
    "cityName": "丽江",
    "address": "丽江市古城区",
    "proId": "YN",
    "proName": "云南",
    "areaId": "Gucheng",
    "areaName": "古城区"
  },
  {
    "id": "013",
    "name": "苏州园林",
    "summary": "中国园林艺术的代表",
    "category": "历史遗迹",
    "rating": 4.8,
    "location": {
      "latitude": 31.3021,
      "longitude": 120.5848
    },
    "ticketPrice": 45,
    "openingHours": "07:30-17:00",
    "image": "app.media.dayanta",
    "cityId": "SZ",
    "cityName": "苏州",
    "address": "苏州市姑苏区",
    "proId": "JS",
    "proName": "江苏",
    "areaId": "Gusu",
    "areaName": "姑苏区"
  },
  {
    "id": "014",
    "name": "布达拉宫",
    "summary": "西藏最庞大、最完整的古代宫堡建筑群",
    "category": "历史遗迹",
    "rating": 4.7,
    "location": {
      "latitude": 29.6547,
      "longitude": 91.1319
    },
    "ticketPrice": 200,
    "openingHours": "09:00-16:00",
    "image": "app.media.tiantan",
    "cityId": "LZ",
    "cityName": "拉萨",
    "address": "拉萨市城关区北京中路",
    "proId": "XZ",
    "proName": "西藏",
    "areaId": "Chengguan",
    "areaName": "城关区"
  },
  {
    "id": "015",
    "name": "桂林山水",
    "summary": "桂林山水甲天下",
    "category": "自然风光",
    "rating": 4.6,
    "location": {
      "latitude": 25.2736,
      "longitude": 110.2864
    },
    "ticketPrice": 0,
    "openingHours": "全天",
    "image": "app.media.tiantan",
    "cityId": "GL",
    "cityName": "桂林",
    "address": "桂林市象山区",
    "proId": "GX",
    "proName": "广西",
    "areaId": "Xiangshan",
    "areaName": "象山区"
  },
  {
    "id": "016",
    "name": "颐和园",
    "summary": "保存最完整的一座皇家行宫御苑",
    "category": "历史遗迹",
    "rating": 4.8,
    "location": {
      "latitude": 39.9986,
      "longitude": 116.0762
    },
    "ticketPrice": 30,
    "openingHours": "06:30-18:00",
    "image": "app.media.tiantan",
    "cityId": "BJ",
    "cityName": "北京",
    "address": "北京市海淀区新建宫门路19号",
    "proId": "BJ",
    "proName": "北京",
    "areaId": "Haidian",
    "areaName": "海淀区"
  },
  {
    "id": "017",
    "name": "天坛公园",
    "summary": "明清两代皇帝祭祀皇天、祈五谷丰登之地",
    "category": "历史遗迹",
    "rating": 4.7,
    "location": {
      "latitude": 39.8724,
      "longitude": 116.4114
    },
    "ticketPrice": 15,
    "openingHours": "06:00-21:00",
    "image": "app.media.tiantan",
    "cityId": "BJ",
    "cityName": "北京",
    "address": "北京市东城区天坛东里甲1号",
    "proId": "BJ",
    "proName": "北京",
    "areaId": "Dongcheng",
    "areaName": "东城区"
  },
  {
    "id": "018",
    "name": "拙政园",
    "summary": "江南园林的代表，苏州园林中面积最大的古典山水园林",
    "category": "历史遗迹",
    "rating": 4.6,
    "location": {
      "latitude": 31.3214,
      "longitude": 120.6415
    },
    "ticketPrice": 88,
    "openingHours": "07:30-17:30",
    "image": "app.media.gugong",
    "cityId": "SZ",
    "cityName": "苏州",
    "address": "苏州市姑苏区东北街178号",
    "proId": "JS",
    "proName": "江苏",
    "areaId": "Gusu",
    "areaName": "姑苏区"
  },
  {
    "id": "019",
    "name": "黄果树瀑布",
    "summary": "中国第一大瀑布，世界著名瀑布之一",
    "category": "自然风光",
    "rating": 4.5,
    "location": {
      "latitude": 26.1341,
      "longitude": 105.7113
    },
    "ticketPrice": 160,
    "openingHours": "07:00-18:30",
    "image": "app.media.gugong",
    "cityId": "Anshun",
    "cityName": "安顺",
    "address": "安顺市镇宁布依族苗族自治县",
    "proId": "GZ",
    "proName": "贵州",
    "areaId": "Zhenning",
    "areaName": "镇宁布依族苗族自治县"
  },
  {
    "id": "020",
    "name": "乌镇",
    "summary": "中国历史文化名镇，江南水乡的代表",
    "category": "历史遗迹",
    "rating": 4.7,
    "location": {
      "latitude": 30.7448,
      "longitude": 120.4743
    },
    "ticketPrice": 110,
    "openingHours": "07:00-22:00",
    "image": "app.media.tiantan",
    "cityId": "WZ",
    "cityName": "桐乡",
    "address": "嘉兴市桐乡市乌镇石佛南路18号",
    "proId": "ZJ",
    "proName": "浙江",
    "areaId": "Tongxiang",
    "areaName": "桐乡市"
  }
]


